City,lat,lng,Max_Temp,Humidity,Cloudiness,Wind_Speed,Country,Date
Mariestad,58.7097,13.8237,4.27,82,17,8.44,SE,1644058555
Ubari,26.5921,12.7805,17.59,17,0,5.19,LY,1644058635
Ancud,-41.8697,-73.8203,11.79,87,3,0.98,CL,1644058572
Takoradze,4.8845,-1.7554,29.94,64,11,2.22,GH,1644058720
Bubaque,11.2833,-15.8333,25.25,43,0,2.39,GW,1644058791
Yumen,40.2833,97.2,-6.19,31,100,8.38,CN,1644058792
Puerto Ayora,-0.7393,-90.3518,23.64,95,68,1.79,EC,1644058335
Zhigansk,66.7697,123.3711,-36.18,100,100,1.88,RU,1644058792
Leshukonskoye,64.8989,45.7622,-14.2,95,83,3.05,RU,1644058792
Ciudad Bolivar,8.1222,-63.5497,22.32,87,26,3.5,VE,1644058571
Castro,-24.7911,-50.0119,20.44,93,99,2.23,BR,1644058369
Ballina,-28.8667,153.5667,22.98,69,75,7.72,AU,1644058695
Butaritari,3.0707,172.7902,28.24,75,21,8.56,KI,1644058342
City of San Pedro,14.35,121.0167,27.57,66,75,5.14,PH,1644058584
Wolsztyn,52.1155,16.1171,5.77,91,100,8.06,PL,1644058793
Lianzhou,24.7811,112.3825,8.98,81,72,1.44,CN,1644058793
Arraial do Cabo,-22.9661,-42.0278,25.92,83,20,4.63,BR,1644058247
Sittwe,20.15,92.9,24.2,68,5,3.78,MM,1644058587
Mataura,-46.1927,168.8643,8.07,85,51,0.5,NZ,1644058248
Coldwater,41.9403,-85.0005,-9.08,92,100,0.0,US,1644058794
Khovd,48.0056,91.6419,-23.11,98,5,0.44,MN,1644058597
Punta Arenas,-53.15,-70.9167,5.06,87,0,1.54,CL,1644058246
Nanortalik,60.1432,-45.2371,-10.28,58,49,16.1,GL,1644058355
Hofn,64.2539,-15.2082,-2.59,63,100,6.55,IS,1644058795
San Patricio,28.017,-97.5169,2.13,80,5,3.7,US,1644058795
Anadyr,64.75,177.4833,-20.72,71,0,5.0,RU,1644058335
Cape Town,-33.9258,18.4232,30.71,42,0,1.34,ZA,1644058316
Gori,41.9842,44.1158,-0.09,81,61,9.45,GE,1644058593
Yellowknife,62.456,-114.3525,-29.84,76,100,3.09,CA,1644058551
Lata,40.1629,-8.3327,14.84,62,78,2.85,PT,1644058556
Cabo San Lucas,22.8909,-109.9124,16.64,68,12,0.63,MX,1644058364
Lüderitz,-26.6481,15.1594,22.9,65,27,5.54,NA,1644058329
Hualmay,-11.0964,-77.6139,20.3,88,95,2.16,PE,1644058591
New Norfolk,-42.7826,147.0587,15.72,64,93,0.99,AU,1644058335
Barra de Tecoanapa,16.5167,-98.75,22.04,70,4,1.55,MX,1644058796
Batemans Bay,-35.7167,150.1833,19.39,83,87,3.62,AU,1644058697
Havre-St-Pierre,50.2334,-63.5986,-14.67,60,100,8.75,CA,1644058796
Malanje,-9.5402,16.341,21.21,88,75,3.09,AO,1644058796
Port Macquarie,-31.4333,152.9167,18.98,70,75,7.16,AU,1644058576
Tessalit,20.1986,1.0114,22.48,11,1,7.1,ML,1644058797
Namtsy,62.7161,129.6658,-31.94,100,100,0.32,RU,1644058797
Mayo,38.8876,-76.5119,0.53,70,75,3.13,US,1644058797
Grand Gaube,-20.0064,57.6608,29.22,78,100,4.47,MU,1644058797
Saint-Joseph,-21.3667,55.6167,29.21,80,100,7.5,RE,1644058797
Odienné,9.51,-7.5692,32.41,9,63,1.96,CI,1644058798
Olafsvik,64.8945,-23.7142,-1.82,73,100,14.25,IS,1644058331
Cap Malheureux,-19.9842,57.6142,29.27,77,100,6.26,MU,1644058356
Broken Hill,-31.95,141.4333,24.84,23,80,5.14,AU,1644058798
Kieta,-6.2167,155.6333,27.91,83,76,3.82,PG,1644058799
San Cristobal,7.7669,-72.225,19.1,94,59,1.21,VE,1644058522
Lebu,-37.6167,-73.65,13.29,92,9,6.47,CL,1644058336
Gimli,50.6336,-96.9907,-19.93,84,100,6.69,CA,1644058799
Zhangye,38.9342,100.4517,-5.27,39,100,1.47,CN,1644058556
Ilulissat,69.2167,-51.1,-19.42,78,100,3.78,GL,1644058358
Guerrero Negro,27.9769,-114.0611,12.9,40,0,0.55,MX,1644058361
Okhotsk,59.3833,143.3,-18.98,72,69,6.5,RU,1644058540
Saint-François,46.4154,3.9054,7.45,93,75,1.03,FR,1644058800
Hong Kong,22.2855,114.1577,16.85,73,74,1.79,HK,1644058074
Boa Vista,2.8197,-60.6733,24.99,73,0,3.6,BR,1644058554
Hamilton,39.1834,-84.5333,-6.62,84,100,0.89,US,1644058512
Charters Towers,-20.1,146.2667,25.59,56,72,4.52,AU,1644058792
Mossamedes,-15.1961,12.1522,25.35,65,20,7.72,AO,1644058359
Matara,5.9485,80.5353,28.11,66,14,2.36,LK,1644058203
Nuevo Progreso,23.1667,-97.95,9.22,38,98,2.68,MX,1644058801
Severo-Yeniseyskiy,60.3725,93.0408,-8.48,92,100,4.91,RU,1644058801
Ankazobe,-18.3167,47.1167,22.23,83,100,7.54,MG,1644058801
Filingué,14.3521,3.3168,25.85,9,1,7.86,NE,1644058802
Tefé,-3.3542,-64.7114,22.11,100,100,0.75,BR,1644058578
Port Elizabeth,-33.918,25.5701,21.16,83,100,6.69,ZA,1644058332
Bluff,-46.6,168.3333,10.6,70,40,1.92,NZ,1644058219
Vao,-22.6667,167.4833,26.76,86,100,1.04,NC,1644058338
Vallenar,-28.5708,-70.7581,19.26,58,0,0.79,CL,1644058565
Domna,51.8971,113.1573,-17.76,64,21,3.0,RU,1644058805
St. George's,12.0564,-61.7485,24.34,79,15,4.6,GD,1644058806
Akhisar,38.9185,27.8401,7.53,44,37,1.65,TR,1644058583
Menongue,-14.6585,17.691,16.61,89,100,3.51,AO,1644058518
Ngorongoro,-3.2397,35.4875,15.52,77,100,1.66,TZ,1644058807
Los Llanos de Aridane,28.6585,-17.9182,17.86,77,20,0.89,ES,1644058369
Sos'va,59.1766,61.8558,-3.58,93,100,1.56,RU,1644058808
Avera,33.194,-82.5271,3.93,65,95,5.81,US,1644058356
Ahipara,-35.1667,173.1667,21.81,95,100,4.53,NZ,1644058219
Auki,-8.7676,160.7034,26.47,87,19,2.54,SB,1644058364
Jamestown,42.097,-79.2353,-10.71,60,75,0.45,US,1644058356
Chardara,41.2547,67.9692,14.01,20,46,6.26,KZ,1644058808
Murdochville,48.9583,-65.5006,-18.17,96,100,2.29,CA,1644058809
Martapura,-3.4167,114.85,25.31,89,99,1.28,ID,1644058811
Shūshtar,32.0455,48.8567,17.96,30,0,5.22,IR,1644058581
Tasiilaq,65.6145,-37.6368,-7.31,67,100,10.01,GL,1644058344
Magistral'nyy,56.1725,107.4458,-11.0,95,100,3.01,RU,1644058811
Karratha,-20.7377,116.8463,30.35,68,66,6.01,AU,1644058359
Ürümqi,43.801,87.6005,-14.47,78,40,1.0,CN,1644058812
Buseresere,-3.0236,31.8747,19.77,83,100,1.83,TZ,1644058811
Drovyanaya,51.5833,113.0333,-18.12,97,37,1.28,RU,1644058813
Kaiu,59.0129,25.0551,0.64,99,100,3.46,EE,1644058813
Gazli,40.1333,63.45,18.21,16,52,9.96,UZ,1644058814
Emerald,-23.5333,148.1667,28.08,32,100,5.14,AU,1644058611
Kudahuvadhoo,2.6708,72.8944,28.03,71,2,6.09,MV,1644058577
Zhangjiakou,40.81,114.8794,-7.34,53,4,3.78,CN,1644058814
Tambovka,50.0969,128.0489,-18.17,99,99,1.83,RU,1644058814
Berlevåg,70.8578,29.0864,-5.9,83,100,9.39,NO,1644058814
Cananea,30.95,-110.3,-1.25,46,1,4.36,MX,1644058520
Tuatapere,-46.1333,167.6833,7.52,84,10,0.63,NZ,1644058815
Meybod,32.2501,54.0166,19.01,20,42,13.41,IR,1644058524
Hasaki,35.7333,140.8333,2.22,43,99,8.25,JP,1644058815
Bambous Virieux,-20.3428,57.7575,29.14,74,75,9.26,MU,1644058339
Saint Anthony,45.0205,-93.218,-16.73,76,100,1.79,US,1644058816
Cambará,-23.0464,-50.0736,22.3,95,100,0.91,BR,1644058816
Mokhsogollokh,61.4681,128.9203,-30.18,100,97,1.24,RU,1644058816
Port Moresby,-9.4431,147.1797,25.5,88,100,3.19,PG,1644058817
Cherskiy,68.75,161.3,-35.64,97,12,1.18,RU,1644058338
Hobart,-42.8794,147.3294,15.92,83,75,0.45,AU,1644058031
Oranjemund,-28.55,16.4333,22.8,64,35,5.07,NA,1644058817
Almansa,38.8692,-1.0971,13.14,84,100,1.05,ES,1644058818
Lodja,-3.4833,23.4333,34.75,36,21,0.86,CD,1644058818
Eyl,7.9803,49.8164,28.44,45,4,7.78,SO,1644058640
Tual,-5.6667,132.75,28.69,77,98,5.17,ID,1644058818
Champerico,14.3,-91.9167,24.6,71,0,1.44,GT,1644058819
Faanui,-16.4833,-151.75,27.27,73,42,7.29,PF,1644058354
Shache,38.4167,77.2406,-1.83,30,82,3.14,CN,1644058820
Sept-Îles,50.2001,-66.3821,-17.75,64,100,2.24,CA,1644058820
Rocha,-34.4833,-54.3333,20.5,85,100,1.6,UY,1644058821
Saskylakh,71.9167,114.0833,-29.96,100,92,1.85,RU,1644058251
Wukari,7.85,9.7833,32.67,10,3,5.38,NG,1644058822
Russas,-4.9403,-37.9758,27.96,66,38,4.13,BR,1644058822
Fomboni,-12.28,43.7425,28.11,75,24,9.59,KM,1644058822
Gunnedah,-30.9833,150.25,16.79,63,81,6.59,AU,1644058696
Mount Isa,-20.7333,139.5,28.87,24,3,2.57,AU,1644058806
Puerto Colombia,10.9878,-74.9547,25.05,80,6,8.94,CO,1644058549
Balabac,7.9868,117.0645,26.49,83,100,10.23,PH,1644058824
Henties Bay,-22.116,14.2845,22.7,69,29,3.93,NA,1644058824
Burnie,-41.0667,145.9167,16.64,72,98,3.15,AU,1644058749
Porto Seguro,-16.4497,-39.0647,24.29,94,75,1.54,BR,1644058545
Mercedes,-34.6515,-59.4307,18.24,94,62,5.97,AR,1644058825
Bonavista,48.6499,-53.1147,0.62,96,100,7.59,CA,1644058362
Drayton Valley,53.2168,-114.9854,-1.26,75,80,4.92,CA,1644058826
Santo Antônio do Sudoeste,-26.0736,-53.7253,21.14,99,98,0.45,BR,1644058826
Marsá Maţrūḩ,31.3525,27.2453,15.63,58,10,6.75,EG,1644058827
Ostrovnoy,68.0531,39.5131,-8.65,78,100,13.95,RU,1644058827
Uppsala County,60.0,17.75,2.01,76,22,4.63,SE,1644058828
Ilo,-17.6394,-71.3375,20.47,82,58,2.08,PE,1644058552
Turiaçu,-1.6633,-45.3717,23.54,96,100,1.32,BR,1644058828
Sakakah,29.9697,40.2064,14.33,40,51,7.92,SA,1644058829
Cutro,39.0353,16.9819,13.59,47,31,1.43,IT,1644058829
Chifeng,42.2683,118.9636,-10.95,65,3,3.15,CN,1644058830
Talnakh,69.4865,88.3972,-22.56,99,92,0.46,RU,1644058830
Kirchzarten,47.9667,7.95,6.45,72,14,0.45,DE,1644058830
Lena,43.1,-5.7333,6.49,88,98,1.95,ES,1644058831
Flinders,-34.5833,150.8552,21.23,73,85,6.29,AU,1644058831
Yako,12.9667,-2.2667,28.97,7,11,6.82,BF,1644058831
Alexandria,31.2156,29.9553,16.98,55,40,5.14,EG,1644058345
Tekāri,24.9333,84.8333,19.12,40,3,4.9,IN,1644058831
Alofi,-19.0595,-169.9187,22.94,94,100,5.66,NU,1644058356
Narsaq,60.9167,-46.05,-22.32,72,1,3.16,GL,1644058333
Colares,38.7992,-9.4469,15.74,64,20,0.45,PT,1644058832
Leningradskiy,69.3833,178.4167,-29.36,96,28,2.82,RU,1644058248
Nuuk,64.1835,-51.7216,-13.66,85,100,1.54,GL,1644058832
Uglovskoye,51.3557,80.1942,-10.32,88,1,2.6,RU,1644058833
Delta del Tigre,-34.7633,-56.3853,22.16,94,100,4.12,UY,1644058574
Elizabeth City,36.2946,-76.2511,3.34,88,100,1.79,US,1644058569
Bulolo,-7.2,146.65,22.38,96,99,1.41,PG,1644058833
Balkanabat,39.5108,54.3671,8.95,71,100,7.92,TM,1644058833
Pisco,-13.7,-76.2167,18.03,88,75,0.51,PE,1644058248
Tigil',57.8,158.6667,-8.24,85,100,3.16,RU,1644058834
Orlik,52.5178,99.825,-18.01,88,97,0.99,RU,1644058834
Jardim,-21.4803,-56.1381,24.88,84,81,2.74,BR,1644058836
Bandarbeyla,9.4942,50.8122,26.42,54,11,5.24,SO,1644058358
Golden,39.7555,-105.2211,0.9,69,52,1.34,US,1644058836
Khatanga,71.9667,102.5,-38.13,100,63,1.05,RU,1644058247
Izumo,35.3667,132.7667,0.97,69,75,10.8,JP,1644058787
Tezu,27.9167,96.1667,15.11,92,99,0.13,IN,1644058836
Goiás,-15.5807,-49.6362,22.52,90,87,0.74,BR,1644058837
Lensk,60.7253,114.9278,-20.31,99,89,1.89,RU,1644058545
Yar-Sale,66.8333,70.8333,-22.95,100,51,2.34,RU,1644058365
Kontagora,10.3999,5.4695,30.95,10,2,3.16,NG,1644058636
Zemio,5.0314,25.1361,34.83,12,100,2.66,CF,1644058838
Ati,13.2154,18.3353,26.9,12,68,6.85,TD,1644058601
Marystown,47.1666,-55.1483,7.14,100,100,0.89,CA,1644058838
Bowen,-20.0167,148.2333,26.66,70,96,9.07,AU,1644058838
Carberry,49.8689,-99.3602,-19.64,96,100,3.57,CA,1644058838
Krasnosel'kup,65.7,82.4667,-12.77,95,100,5.16,RU,1644058839
Taoudenni,22.6783,-3.9836,24.17,9,39,6.55,ML,1644058839
Norman Wells,65.282,-126.8329,-29.71,97,89,1.9,CA,1644058839
Nikel,69.4128,30.222,-9.9,85,100,9.66,RU,1644058840
Anito,12.4497,125.2886,25.83,76,58,5.8,PH,1644058840
Whitehorse,60.7161,-135.0538,-16.22,77,100,4.92,CA,1644058841
Tzaneen,-23.8332,30.1635,20.12,34,68,5.5,ZA,1644058571
Tiksi,71.6872,128.8694,-29.48,98,100,3.34,RU,1644058334
Port Alfred,-33.5906,26.891,20.67,84,96,9.97,ZA,1644058334
Tainan City,22.9908,120.2133,18.88,67,75,3.6,TW,1644058569
São Filipe,14.8961,-24.4956,24.24,61,0,4.05,CV,1644058350
Souillac,-20.5167,57.5167,29.21,74,75,9.26,MU,1644058252
Ol'ga,43.7444,135.2892,-13.75,58,8,7.79,RU,1644058842
Kutum,14.2,24.6667,20.9,13,5,6.69,SD,1644058842
Belyy Yar,53.6039,91.3903,-18.06,78,90,0.0,RU,1644058249
Chitungwiza,-18.0127,31.0756,23.85,65,51,2.4,ZW,1644058644
George,-33.963,22.4617,23.75,64,20,8.23,ZA,1644058582
Ekhabi,53.5102,142.9671,-15.49,92,100,9.72,RU,1644058843
Si Sa Ket,14.8333,104.3333,30.56,46,32,2.31,TH,1644058601
Sur,22.5667,59.5289,28.51,30,2,2.07,OM,1644058558
Roald,62.5833,6.1333,3.33,64,40,14.4,NO,1644058336
Astoria,46.1879,-123.8313,6.64,95,100,0.0,US,1644058361
Praia,14.9215,-23.5087,23.32,64,0,5.7,CV,1644058844
Maltahöhe,-24.8333,16.9833,31.04,20,34,8.67,NA,1644058819
Bengkulu,-3.8004,102.2655,25.72,85,94,2.83,ID,1644058124
Florence,43.7667,11.25,15.84,95,75,0.51,IT,1644058821
Guangyuan,32.442,105.823,6.02,86,100,1.26,CN,1644058558
Pangnirtung,66.1451,-65.7125,-32.63,98,100,0.35,CA,1644058845
Cockburn Town,21.4612,-71.1419,24.12,73,6,10.6,TC,1644058560
Swellendam,-34.0226,20.4417,29.19,33,1,3.66,ZA,1644058845
Chui,-33.6971,-53.4616,20.62,91,97,2.69,UY,1644058351
Macheng,31.1783,115.0319,7.38,56,93,3.12,CN,1644058558
Bambanglipuro,-7.95,110.2833,18.11,84,99,3.43,ID,1644058846
Kruisfontein,-34.0033,24.7314,22.55,69,86,8.57,ZA,1644058358
Hearst,49.6835,-83.6665,-26.7,100,77,1.69,CA,1644058846
Kupang,-10.1667,123.5833,26.87,83,81,3.56,ID,1644058846
Groton,41.3501,-72.0784,-3.16,75,100,0.89,US,1644058847
Barcelos,41.5388,-8.6151,13.29,61,26,2.12,PT,1644058359
Goderich,43.7501,-81.7165,-10.05,94,100,2.39,CA,1644058847
Hūn,29.1268,15.9477,18.72,18,1,1.43,LY,1644058848
Nassau,40.7507,-73.5829,-3.5,79,100,0.45,US,1644058848
Mitsamiouli,-11.3847,43.2844,27.91,78,98,7.55,KM,1644058848
Skegness,53.1436,0.3363,6.79,78,100,11.09,GB,1644058849
Upata,8.0086,-62.3989,20.66,94,32,1.35,VE,1644058849
Vaini,-21.2,-175.2,25.09,100,100,3.09,TO,1644058329
Okha,53.5739,142.9478,-15.06,91,100,9.62,RU,1644058849
Kununurra,-15.7667,128.7333,24.99,94,75,3.09,AU,1644058759
Dickinson,29.4608,-95.0513,0.55,85,8,1.79,US,1644058850
Namatanai,-3.6667,152.4333,27.13,78,88,3.12,PG,1644058850
Sørland,67.667,12.6934,1.92,95,100,15.73,NO,1644058850
Qandala,11.472,49.8728,27.05,46,46,2.81,SO,1644058640
Abhā,18.2164,42.5053,16.99,52,0,5.4,SA,1644058839
Tautira,-17.7333,-149.15,25.01,70,20,6.79,PF,1644058851
Mugur-Aksy,50.35,90.5,-21.27,78,0,2.3,RU,1644058851
Koslan,63.4564,48.8989,-12.62,95,79,1.69,RU,1644058851
Bredasdorp,-34.5322,20.0403,27.93,52,59,10.36,ZA,1644058851
Kaitangata,-46.2817,169.8464,12.74,79,83,0.92,NZ,1644058353
Moose Factory,51.2585,-80.6094,-30.01,76,0,1.03,CA,1644058367
Kariba,-16.5167,28.8,26.27,63,78,1.11,ZW,1644058644
Yulara,-25.2406,130.9889,29.91,17,0,3.6,AU,1644058358
Byron Bay,-28.65,153.6167,22.94,70,86,9.6,AU,1644058852
Swan Hill,-35.3378,143.5544,24.42,27,89,2.59,AU,1644058344
Barreirinha,-2.7933,-57.07,23.18,92,100,0.22,BR,1644058852
Rikitea,-23.1203,-134.9692,25.55,74,9,3.57,PF,1644058332
Hervey Bay,-25.2986,152.8535,22.06,73,47,11.53,AU,1644058853
Klaksvík,62.2266,-6.589,0.51,93,100,2.94,FO,1644058331
Kargasok,59.0556,80.8572,-4.55,94,100,3.28,RU,1644058854
Fukuechō,32.6881,128.8419,3.2,60,75,6.17,JP,1644058592
Pimentel,-6.8367,-79.9342,20.68,87,70,3.31,PE,1644058572
Pundaguitan,6.3711,126.1689,27.44,80,7,8.48,PH,1644058854
Agadir,30.4202,-9.5982,21.25,38,100,0.98,MA,1644058855
Comodoro Rivadavia,-45.8667,-67.5,14.24,58,0,3.33,AR,1644058856
Port Blair,11.6667,92.75,27.77,74,89,4.65,IN,1644058856
Aykhal,66.0,111.5,-31.76,100,76,2.67,RU,1644058857
Barrow,71.2906,-156.7887,-21.99,77,100,4.12,US,1644058331
Green River,41.5286,-109.4662,-1.03,70,43,2.47,US,1644058857
Visby,57.6409,18.296,3.36,87,40,6.69,SE,1644058857
Mount Gambier,-37.8333,140.7667,19.95,56,90,6.69,AU,1644058344
Kourou,5.1552,-52.6478,26.73,91,92,3.11,GF,1644058846
Mikhaylovka,50.06,43.2379,-5.12,90,89,4.67,RU,1644058858
Westport,41.1415,-73.3579,-3.44,83,100,1.34,US,1644058569
Thompson,55.7435,-97.8558,-39.91,74,40,0.0,CA,1644058352
Vanimo,-2.6741,141.3028,26.4,86,65,4.04,PG,1644058340
Caconda,-13.7333,15.0667,24.0,34,100,3.48,AO,1644058858
Pangody,65.85,74.4859,-22.08,100,78,2.31,RU,1644058859
Praia,14.9215,-23.5087,24.3,46,0,8.23,CV,1644058577
Loreto,22.2667,-101.9667,2.75,92,8,2.81,MX,1644058860
Saldanha,-33.0117,17.9442,33.03,56,17,5.6,ZA,1644058331
Uyuni,-20.4597,-66.825,5.7,34,18,3.41,BO,1644058860
Coahuayana Viejo,18.7333,-103.6833,18.32,68,1,1.77,MX,1644058860
Erzurum Province,40.0,41.5,-6.18,91,30,3.96,TR,1644058860
Provideniya,64.3833,-173.3,-19.49,87,1,4.13,RU,1644058335
Altay,47.8667,88.1167,-12.4,60,0,3.89,CN,1644058862
Avarua,-21.2078,-159.775,26.03,83,20,5.14,CK,1644058344
Atuona,-9.8,-139.0333,25.44,80,11,8.88,PF,1644058341
Greenwood,34.1668,-82.1165,4.04,78,40,0.0,US,1644058855
Sosenskiy,54.059,35.9623,-9.16,90,100,2.58,RU,1644058863
Cartagena,10.3997,-75.5144,23.58,86,6,3.66,CO,1644058864
Geraldton,-28.7667,114.6,31.23,37,0,6.69,AU,1644058108
Huarmey,-10.0681,-78.1522,20.68,89,61,2.56,PE,1644058864
San Fernando del Valle de Catamarca,-28.4696,-65.7852,20.99,74,0,1.39,AR,1644058864
Saint-Pierre,-21.3393,55.4781,29.82,66,100,1.54,RE,1644058865
Okato,-39.2,173.8833,20.51,97,100,3.69,NZ,1644058865
Nantucket,41.2835,-70.0995,-0.94,86,100,7.72,US,1644058865
San Quintín,30.4833,-115.95,11.81,41,8,0.83,MX,1644058865
Chingirlau,51.095,54.0814,-0.51,97,100,3.67,KZ,1644058865
Riyadh,24.6877,46.7219,20.12,20,0,6.33,SA,1644058831
Venustiano Carranza,19.43,-99.0992,11.67,68,6,2.24,MX,1644058866
Kumluca,36.3703,30.2869,12.6,64,0,2.42,TR,1644058866
Sangar,63.9242,127.4739,-36.41,99,95,1.23,RU,1644058867
Kitimat,54.0524,-128.6534,5.51,61,100,2.7,CA,1644058867
Abalak,58.1286,68.5944,-3.68,88,100,2.94,RU,1644058867
Francisco Beltrão,-26.0811,-53.055,21.1,99,100,1.09,BR,1644058867
Temyasovo,52.9933,58.1014,-11.8,94,100,3.71,RU,1644058867
Finschhafen,-6.6024,147.8681,27.66,85,81,5.08,PG,1644058868
Pilar,-9.5972,-35.9567,26.96,59,58,3.36,BR,1644058600
Mayumba,-3.432,10.6554,27.9,69,61,3.47,GA,1644058868
Zhezkazgan,47.8043,67.7144,-4.01,63,0,8.0,KZ,1644058869
Kota Kinabalu,5.9749,116.0724,28.99,74,20,1.03,MY,1644058869
Seoul,37.5683,126.9778,-4.31,44,0,3.6,KR,1644058201
Fairbanks,64.8378,-147.7164,-14.39,81,100,0.0,US,1644058869
Hengshui,37.7322,115.7011,0.92,28,37,1.84,CN,1644058870
Yerbogachën,61.2767,108.0108,-13.03,95,100,3.58,RU,1644058870
Luwingu,-10.2621,29.9271,22.79,68,100,3.01,ZM,1644058871
Beaupré,47.0443,-70.8953,-11.69,89,100,0.45,CA,1644058871
East London,-33.0153,27.9116,20.52,94,100,5.14,ZA,1644058331
Banjar,-8.19,114.9675,28.92,89,76,0.26,ID,1644058612
Vammala,61.3333,22.9,0.72,93,100,3.09,FI,1644058872
Nouadhibou,20.931,-17.0347,19.23,62,0,4.83,MR,1644058872
Tocopilla,-22.092,-70.1979,20.11,70,6,3.15,CL,1644058873
Nola,40.922,14.5329,17.06,58,91,0.64,IT,1644058873
Hermanus,-34.4187,19.2345,34.39,46,1,8.21,ZA,1644058333
Tabory,58.5198,64.5495,-3.38,92,100,2.14,RU,1644058874
Kyabram,-36.3167,145.05,23.26,36,38,4.7,AU,1644058874
Maniitsoq,65.4167,-52.9,-13.77,80,100,8.01,GL,1644058874
Burgeo,47.6167,-57.6152,-2.66,88,100,7.92,CA,1644058874
Shubarkuduk,49.1447,56.4872,-1.17,89,99,5.62,KZ,1644058875
Bilibino,68.0546,166.4372,-24.02,98,6,2.28,RU,1644058343
Los Baños,14.1667,121.1833,27.27,77,77,5.76,PH,1644058785
Jumla,29.2747,82.1838,5.38,59,58,2.49,NP,1644058875
Touros,-5.1989,-35.4608,28.75,60,9,5.99,BR,1644058862
Pahrump,36.2083,-115.9839,6.14,34,0,0.83,US,1644058875
Constitución,-35.3333,-72.4167,15.1,74,1,2.99,CL,1644058876
Gornyy,55.1153,83.9059,-10.3,84,99,3.91,RU,1644058876
Huilong,31.8111,121.655,5.02,54,31,6.21,CN,1644058876
Esim,4.8699,-2.2405,30.56,62,7,1.78,GH,1644058876
San Miguel,13.4833,-88.1833,21.97,72,43,1.64,SV,1644058876
Puno,-15.8333,-70.0333,5.04,78,99,1.46,PE,1644058876
Segovia,41.1667,-4.0,8.79,67,52,4.62,ES,1644058877
Paamiut,61.994,-49.6678,-19.37,86,75,4.41,GL,1644058877
Honiara,-9.4333,159.95,26.5,87,53,1.29,SB,1644058877
Inverell,-29.7833,151.1167,17.59,68,40,3.58,AU,1644058696
Vieste,41.8825,16.175,12.92,70,52,1.48,IT,1644058877
Abrau-Dyurso,44.69,37.59,-0.29,57,73,3.89,RU,1644058878
Xining,36.6167,101.7667,-8.4,67,100,2.91,CN,1644058647
Katsuura,35.1333,140.3,3.44,40,90,6.43,JP,1644058337
Shenjiamen,29.9576,122.298,4.4,63,6,8.51,CN,1644058878
Cabedelo,-6.9811,-34.8339,27.86,62,5,4.78,BR,1644058878
Mahébourg,-20.4081,57.7,29.16,74,75,9.26,MU,1644058353
Ayan,56.45,138.1667,-18.77,69,100,6.41,RU,1644058879
Mar del Plata,-38.0023,-57.5575,20.61,86,100,7.6,AR,1644058342
Philadelphia,39.9523,-75.1638,-2.51,72,98,1.79,US,1644058863
Balyqshy,47.0667,51.8667,1.0,93,75,11.0,KZ,1644058584
Sitka,57.0531,-135.33,3.94,87,100,3.6,US,1644058879
Sargatskoye,55.6101,73.4972,-6.86,84,100,3.25,RU,1644058880
Panguna,-6.3164,155.4848,22.54,94,83,0.84,PG,1644058880
Midland,31.9974,-102.0779,-4.25,68,0,3.09,US,1644058665
Davila,18.4726,120.5763,24.04,79,30,12.31,PH,1644058880
Alice Springs,-23.7,133.8833,22.75,43,0,3.09,AU,1644058881
Chokurdakh,70.6333,147.9167,-35.42,100,66,0.11,RU,1644058330
Vestmannaeyjar,63.4427,-20.2734,-0.26,58,100,10.01,IS,1644058881
Safaga,26.7292,33.9365,18.16,43,1,6.53,EG,1644058602
Necochea,-38.5473,-58.7368,16.13,84,100,5.63,AR,1644058882
Luwuk,-0.9516,122.7875,26.38,88,100,0.98,ID,1644058882
Kaeo,-35.1,173.7833,22.4,97,99,3.59,NZ,1644058882
Nagato,34.3833,131.2,2.95,52,88,9.28,JP,1644058882
Chik,54.9928,82.4311,-8.14,57,0,4.0,RU,1644058882
Gamba,-2.65,10.0,28.84,63,43,3.58,GA,1644058883
Villarrica,-25.75,-56.4333,21.96,99,100,1.85,PY,1644058883
Srednekolymsk,67.45,153.6833,-38.52,100,57,1.17,RU,1644058884
Kavieng,-2.5744,150.7967,28.01,76,85,3.33,PG,1644058341
Robertsport,6.7533,-11.3686,27.67,72,17,1.09,LR,1644058884
Soe,-9.8607,124.284,21.07,91,98,0.64,ID,1644058612
Jalu,29.0331,21.5482,15.37,48,0,2.09,LY,1644058884
Sheridan,44.8333,-106.9173,6.28,30,0,2.24,US,1644058884
Lavrentiya,65.5833,-171.0,-26.25,94,17,4.08,RU,1644058336
Lompoc,34.6391,-120.4579,12.33,82,0,3.6,US,1644058332
Meulaboh,4.1363,96.1285,27.37,78,82,2.48,ID,1644058588
Amboise,47.4125,0.9827,6.61,83,0,3.09,FR,1644058885
Hambantota,6.1241,81.1185,31.19,70,20,3.6,LK,1644058807
Kapaa,22.0752,-159.319,20.18,59,40,0.45,US,1644058339
Umluj,25.0213,37.2685,20.29,43,1,6.21,SA,1644058886
Dikson,73.5069,80.5464,-25.52,95,99,2.66,RU,1644058886
Qaanaaq,77.484,-69.3632,-19.82,76,77,3.68,GL,1644058886
Sisimiut,66.9395,-53.6735,-16.24,86,100,6.97,GL,1644058887
Greeneville,36.1632,-82.831,-1.71,78,100,3.09,US,1644058887
Codrington,-38.2667,141.9667,17.78,68,95,5.78,AU,1644058355
Coquimbo,-29.9533,-71.3436,18.65,81,0,0.55,CL,1644058888
Atar,20.5169,-13.0499,28.51,6,28,4.03,MR,1644058888
Amapá,1.0,-52.0,22.43,98,99,0.68,BR,1644058889
Jasper,37.2001,-94.3502,-8.97,80,0,0.45,US,1644058889
Marsh Harbour,26.5412,-77.0636,22.1,63,0,2.17,BS,1644058889
Kulhudhuffushi,6.6221,73.07,27.32,67,11,4.7,MV,1644058889
Dukat,62.55,155.55,-28.23,73,6,2.99,RU,1644058889
Odesa,46.4775,30.7326,3.96,81,20,4.0,UA,1644058878
Mormugao,15.4,73.8,26.59,61,70,4.12,IN,1644058890
Kangaatsiaq,68.3065,-53.4641,-20.58,85,100,4.14,GL,1644058890
Saint-Philippe,-21.3585,55.7679,29.77,86,100,9.62,RE,1644058891
Ozinki,51.1786,49.6769,-0.17,99,100,3.02,RU,1644058891
Boende,-0.2167,20.8667,37.39,27,84,0.98,CD,1644058892
Nome,64.5011,-165.4064,-13.96,33,0,3.6,US,1644058365
Longyearbyen,78.2186,15.6401,-12.09,67,20,12.35,SJ,1644058803
Sioux Lookout,50.1001,-91.917,-20.43,96,100,2.1,CA,1644058892
Marzuq,14.4,46.4667,30.28,14,8,3.15,YE,1644058329
Carnarvon,-24.8667,113.6333,32.04,48,27,4.63,AU,1644058347
Albany,42.6001,-73.9662,-9.85,81,100,4.02,US,1644058895
Lappeenranta,61.0587,28.1887,-4.97,86,100,5.14,FI,1644058895
Torbay,47.6666,-52.7314,9.31,98,100,5.66,CA,1644058357
Stykkisholmur,65.0757,-22.7297,-3.0,70,100,9.32,IS,1644058896
Chiredzi,-21.05,31.6667,29.03,43,98,3.01,ZW,1644058644
Chapada dos Guimarães,-15.4606,-55.7497,20.81,87,69,1.28,BR,1644058896
Yauya,-8.9833,-77.3,9.12,86,84,0.31,PE,1644058896
Mareeba,-17.0,145.4333,23.02,95,99,1.06,AU,1644058799
Mahajanga,-15.7167,46.3167,27.01,89,40,4.12,MG,1644058597
Busselton,-33.65,115.3333,26.7,48,0,5.46,AU,1644058332
George Town,5.4112,100.3354,27.75,94,40,1.34,MY,1644058365
Lufilufi,-13.8745,-171.5986,28.18,74,100,8.05,WS,1644058897
Morón,-34.6534,-58.6198,19.43,82,39,4.74,AR,1644058898
Lahaina,20.8783,-156.6825,24.34,77,2,2.43,US,1644058898
Bethel,41.3712,-73.414,-4.68,85,100,4.14,US,1644058898
Lagoa,39.05,-27.9833,14.5,74,71,8.99,PT,1644058354
Rancho Palos Verdes,33.7445,-118.387,14.71,31,1,1.34,US,1644058899
Magadan,59.5667,150.8,-18.35,59,0,5.42,RU,1644058899
Fortuna,40.5982,-124.1573,7.59,95,100,0.0,US,1644058899
Hāflong,25.1833,93.0333,14.18,96,66,1.16,IN,1644058899
Esperance,-33.8667,121.9,24.99,54,2,11.04,AU,1644058822
Iqaluit,63.7506,-68.5145,-34.06,66,75,0.89,CA,1644058353
Atikokan,48.7555,-91.6216,-21.4,98,99,1.97,CA,1644058900
Kisangani,0.5167,25.2,35.74,33,78,1.47,CD,1644058900
Kavaratti,10.5669,72.642,25.93,59,7,3.62,IN,1644058901
Bathsheba,13.2167,-59.5167,23.9,70,3,5.58,BB,1644058901
Hīt,33.6416,42.8251,15.91,40,18,5.59,IQ,1644058901
Saint Paul Harbor,57.79,-152.4072,4.73,75,20,9.77,US,1644058343
Kiryat Gat,31.61,34.7642,14.38,100,92,6.61,IL,1644058902
Huangmei,30.1924,116.025,5.92,65,11,5.28,CN,1644058902
Singaraja,-8.112,115.0882,28.87,84,84,1.23,ID,1644058902
Omboué,-1.5746,9.2618,28.93,65,35,3.92,GA,1644058902
Upernavik,72.7868,-56.1549,-18.43,90,100,2.59,GL,1644058336
Dingle,10.9995,122.6711,24.29,85,78,5.68,PH,1644058903
Gazojak,41.1875,61.4036,15.11,27,41,3.22,TM,1644058903
Safi,32.2994,-9.2372,19.53,52,100,6.8,MA,1644058904
Dapaong,10.8639,0.205,29.72,8,8,5.1,TG,1644058904
Hastings,50.8552,0.5729,9.05,73,82,8.83,GB,1644058807
Dawei,14.0833,98.2,27.5,70,98,2.73,MM,1644058636
Airai,-8.9266,125.4092,17.15,92,96,0.83,TL,1644058346
Vardø,70.3705,31.1107,-4.25,79,100,11.63,NO,1644058345
Santa Maria,-29.6842,-53.8069,22.46,93,100,2.88,BR,1644058905
Strezhevoy,60.7333,77.5889,-9.01,95,100,0.92,RU,1644058745
Buala,-8.145,159.5921,27.51,83,32,2.92,SB,1644058362
Da Lat,11.9465,108.4419,14.58,87,100,2.13,VN,1644058720
Nouakchott,18.0858,-15.9785,22.96,23,0,4.64,MR,1644058906
Haines Junction,60.7522,-137.5108,-13.36,100,100,0.37,CA,1644058906
Isla Mujeres,21.2311,-86.731,20.65,84,1,5.27,MX,1644058803
Inírida,3.8653,-67.9239,22.48,97,89,1.08,CO,1644058907
Manggar,-2.8833,108.2667,27.37,74,99,3.35,ID,1644058612
Beloha,-25.1667,45.05,29.33,60,98,8.68,MG,1644058635
Cidreira,-30.1811,-50.2056,24.12,91,67,3.57,BR,1644058357
Alugan,12.2188,125.4808,26.4,76,32,7.24,PH,1644058907
Aswān,24.0934,32.907,18.96,27,0,7.11,EG,1644058773
Petropavlovsk-Kamchatskiy,53.0452,158.6483,-6.75,81,100,3.3,RU,1644058908
Río Gallegos,-51.6226,-69.2181,11.84,61,55,7.02,AR,1644058909
Buluang,13.3068,123.3425,23.27,87,88,2.5,PH,1644058909
Cortez,37.3489,-108.5859,-4.77,65,1,1.5,US,1644058909
Ponta do Sol,32.6667,-17.1,23.17,48,7,3.43,PT,1644058334
Sarangani,5.4033,125.4636,27.8,79,84,11.42,PH,1644058910
Chapais,49.7834,-74.8492,-27.19,98,99,1.45,CA,1644058910
Nikolskoye,59.7035,30.7861,-3.4,93,100,5.73,RU,1644058345
Bereda,43.2686,-7.5406,11.67,80,12,3.02,ES,1644058911
Liepāja,56.5419,21.0367,3.03,87,100,8.75,LV,1644058911
Baruun-Urt,46.6806,113.2792,-16.76,89,7,3.32,MN,1644058635
Makar'yev,57.8797,43.8069,-7.46,91,100,3.91,RU,1644058912
Rome,43.2128,-75.4557,-11.08,92,100,2.06,US,1644058893
Southbridge,42.0751,-72.0334,-4.76,89,99,0.45,US,1644058912
Chhor,25.5167,69.7667,27.87,22,0,3.64,PK,1644058912
Hilo,19.7297,-155.09,21.55,92,100,1.54,US,1644058223
Newport,51.5877,-2.9984,9.75,81,100,10.59,GB,1644058913
Stornoway,58.2093,-6.3865,6.98,83,75,3.58,GB,1644058352
Leh,34.1667,77.5833,-15.86,93,48,0.69,IN,1644058913
Plácido de Castro,-10.3353,-67.1856,21.93,99,100,1.07,BR,1644058913
Grand-Bourg,15.8835,-61.3148,20.97,72,7,5.17,GP,1644058914
Biak,-0.9131,122.8766,25.81,83,100,1.14,ID,1644058694
Huambo,-12.7761,15.7392,23.56,43,90,3.29,AO,1644058914
Mehamn,71.0357,27.8492,-8.21,89,51,5.93,NO,1644058364
Egvekinot,66.3167,-179.1667,-23.97,85,6,6.18,RU,1644058369
Chitral,35.8462,71.7858,5.06,69,0,1.71,PK,1644058915
Guderup,54.9898,9.8717,5.84,70,47,6.17,DK,1644058915
Talas,38.6908,35.5538,-0.63,64,40,2.57,TR,1644058915
Hithadhoo,-0.6,73.0833,28.08,71,100,5.88,MV,1644058354
Aklavik,68.2191,-135.0107,-38.48,96,14,3.33,CA,1644058916
Honningsvåg,70.9821,25.9704,-2.79,72,19,9.97,NO,1644058916
Jørpeland,59.0225,6.0408,5.64,79,100,8.16,NO,1644058844
Melita,49.2681,-100.9967,-11.37,96,100,1.93,CA,1644058917
Raudeberg,61.9875,5.1352,2.37,78,100,3.58,NO,1644058917
Fairview,40.8126,-73.999,-3.75,74,100,5.36,US,1644058918
Asău,46.4333,26.4,8.86,49,100,2.83,RO,1644058918
Portland,45.5234,-122.6762,8.49,95,100,0.45,US,1644058667
Half Moon Bay,37.4636,-122.4286,12.17,69,0,0.0,US,1644058918
Santa Cruz de la Sierra,-17.8,-63.1667,24.03,94,100,6.69,BO,1644058347
Tuktoyaktuk,69.4541,-133.0374,-32.15,95,35,5.08,CA,1644058332
Salalah,17.0151,54.0924,25.81,60,0,3.84,OM,1644058919
Flin Flon,54.7682,-101.865,-22.3,98,100,2.9,CA,1644058919
Labuhan,-6.8844,112.2051,26.37,85,91,6.21,ID,1644058919
Arrondissement de Limoux,42.9167,2.1667,12.31,73,100,4.4,FR,1644058919
Ushuaia,-54.8,-68.3,7.87,71,94,3.89,AR,1644058920
Lakhdenpokh'ya,61.5198,30.1992,-5.66,94,100,6.63,RU,1644058920
Sabinov,49.1031,21.0988,4.77,73,95,4.02,SK,1644058920
Caravelas,-17.7125,-39.2481,26.91,72,99,3.17,BR,1644058920
Patrocínio,-18.9439,-46.9925,20.53,88,83,0.57,BR,1644058920
Tivaouane,14.9515,-16.8129,25.19,7,0,5.54,SN,1644058921
Udachny,66.4167,112.4,-33.86,100,50,1.66,RU,1644058640
Serabu,7.7958,-12.0536,32.62,46,60,0.56,SL,1644058922
Te Anau,-45.4167,167.7167,6.47,92,4,1.88,NZ,1644058875
Harper,4.375,-7.7169,29.3,66,92,1.91,LR,1644058635
Fonte Boa,-2.4959,-66.2662,21.76,99,100,0.49,BR,1644058922
La Rioja,42.25,-2.5,7.95,83,100,3.69,ES,1644058923
Fare,-16.7,-151.0167,26.86,74,27,6.72,PF,1644058923
Nangomba,-10.9,38.5,26.14,71,100,2.27,TZ,1644058923
San Miguel de Tucumán,-26.8241,-65.2226,19.06,91,32,1.35,AR,1644058923
Lashma,54.9321,41.1438,-6.49,83,55,3.66,RU,1644058923
Yarkovo,57.4028,67.0786,-2.98,83,100,3.05,RU,1644058924
Lorengau,-2.0226,147.2712,27.57,79,100,4.79,PG,1644058924
Muros,42.7762,-9.0603,12.27,68,2,6.26,ES,1644058629
Gaoual,11.75,-13.2,34.16,20,0,0.07,GN,1644058924
Diego de Almagro,-26.3667,-70.05,17.36,40,0,0.4,CL,1644058924
Itupiranga,-5.1347,-49.3267,23.39,96,100,1.1,BR,1644058925
Isla Vista,34.4133,-119.861,13.02,79,0,2.64,US,1644058925
Severo-Kuril'sk,50.6789,156.125,-1.59,93,100,5.22,RU,1644058354
Acapulco de Juárez,16.8634,-99.8901,21.96,73,0,2.13,MX,1644058925
Pevek,69.7008,170.3133,-32.97,99,30,1.49,RU,1644058335
Tres Arroyos,-38.3739,-60.2798,15.91,86,100,7.13,AR,1644058925
Zheleznodorozhnyy,55.7503,38.0042,-6.25,91,96,0.54,RU,1644058926
Timizart,36.8,4.2667,16.01,56,82,1.92,DZ,1644058926
Simao,22.7886,100.9748,14.37,84,40,1.84,CN,1644058926
Verāval,20.9,70.3667,23.19,48,7,3.73,IN,1644058927
Port Lincoln,-34.7333,135.8667,20.49,72,35,7.33,AU,1644058927
Palmer,42.1584,-72.3287,-4.88,72,75,0.89,US,1644058345
Antofagasta,-23.65,-70.4,18.72,74,16,0.74,CL,1644058928
Clyde River,70.4692,-68.5914,-27.87,76,100,5.14,CA,1644058344
Nizhniy Odes,63.6445,54.856,-14.06,97,75,0.6,RU,1644058928
Ixtapa,20.7,-105.2,20.13,90,22,0.68,MX,1644058367
Tilichiki,60.4667,166.1,-19.26,84,86,3.47,RU,1644058929
Gizo Government Station,-8.103,156.8419,28.73,74,83,2.5,SB,1644058929
Loikaw,19.6742,97.2094,22.84,50,31,2.94,MM,1644058930
São Félix do Xingu,-6.6447,-51.995,22.56,96,100,0.33,BR,1644058930
Kumul,42.8,93.45,-1.7,28,85,1.76,CN,1644058361
Itarema,-2.9248,-39.9167,26.93,78,73,5.16,BR,1644058930
Presidencia Roque Sáenz Peña,-26.7852,-60.4388,22.17,91,100,1.49,AR,1644058930
Ngunguru,-35.6167,174.5,22.31,95,100,5.42,NZ,1644058931
Yondó,7.0062,-73.9097,21.72,99,90,0.68,CO,1644058931
Marawi,7.9986,124.2928,22.58,96,43,1.18,PH,1644058931
Hay River,60.8156,-115.7999,-20.29,99,100,3.51,CA,1644058931
Tshikapa,-6.4167,20.8,29.59,59,100,0.5,CD,1644058931
Praia da Vitória,38.7333,-27.0667,15.98,89,97,7.82,PT,1644058932
Zambezi,-13.5432,23.1047,24.31,73,93,3.74,ZM,1644058932
Nishihara,26.1842,127.7558,14.82,63,40,9.77,JP,1644058802
Padang,-0.9492,100.3543,24.03,93,96,2.43,ID,1644058875
Aktash,50.3,87.7333,-21.78,77,0,2.35,RU,1644058933
Rabo de Peixe,37.8,-25.5833,15.73,89,20,5.66,PT,1644058933
Ribeira Grande,38.5167,-28.7,16.22,72,40,5.14,PT,1644058365
Inongo,-1.95,18.2667,27.65,64,38,2.21,CD,1644058934
Esmeraldas,-19.7625,-44.3139,20.48,89,86,0.81,BR,1644058934
Tucupita,9.0622,-62.051,20.96,95,20,1.11,VE,1644058934
